{
  "code": 200,
  "msg": "success",
  "data": [
    {
      "parkingId": "582",
      "parkingName": "体育公园停车场",
      "coordSystem": "gcj02",
      "location": {
        "lat": 29.7239888665,
        "lng": 120.2588953756
      },
      "entrances": [
        {
          "entryId": "1191",
          "entryName": "停车区",
          "location": {
            "lat": 29.7239888665,
            "lng": 120.2588953756
          }
        }
      ],
      "totalSpotsKnown": true,
      "cameras": [
        {
          "cameraId": 3577,
          "cameraRole": "spots",
          "entryId": "1191",
          "cameraStatus": 1,
          "snapshotTime": 1776161411011,
          "snapshotUrl": "https://aidata-oss-cloud-prod.zhidaozhixing.com/oss-cloud/open/files/tmp/6ebdd15fb3bd48e8a1c190e56c3574f9.jpg",
          "totalSpots": 19,
          "availableSpots": 9,
          "matchScore": 1
        }
      ]
    },
    {
      "parkingId": "633",
      "parkingName": "一百超市停车场",
      "coordSystem": "gcj02",
      "location": {
        "lat": 29.7104361581,
        "lng": 120.2432361075
      },
      "entrances": [
        {
          "entryId": "1276",
          "entryName": "地上停车位",
          "location": {
            "lat": 29.7104361581,
            "lng": 120.2432361075
          }
        }
      ],
      "totalSpotsKnown": true,
      "cameras": [
        {
          "cameraId": 3684,
          "cameraRole": "spots",
          "entryId": "1276",
          "cameraStatus": 1,
          "snapshotTime": 1776161603895,
          "snapshotUrl": "https://aidata-oss-cloud-prod.zhidaozhixing.com/oss-cloud/open/files/tmp/8460530c6bce4284a8fdc8b73589ad43.jpg",
          "totalSpots": 24,
          "availableSpots": 9,
          "matchScore": 1
        }
      ]
    },
    {
      "parkingId": "918",
      "parkingName": "西施故里停车场",
      "coordSystem": "gcj02",
      "location": {
        "lat": 29.6961718692,
        "lng": 120.232961611
      },
      "entrances": [
        {
          "entryId": "1785",
          "entryName": "停车位",
          "location": {
            "lat": 29.6961718692,
            "lng": 120.232961611
          }
        }
      ],
      "totalSpotsKnown": true,
      "cameras": [
        {
          "cameraId": 4227,
          "cameraRole": "spots",
          "entryId": "1785",
          "cameraStatus": 1,
          "snapshotTime": 1776161152181,
          "snapshotUrl": "https://aidata-oss-cloud-prod.zhidaozhixing.com/oss-cloud/open/files/tmp/cc57a1400ade48d9b89d282037c5adb4.jpg",
          "totalSpots": 13,
          "availableSpots": 11,
          "matchScore": 1
        }
      ]
    },
    {
      "parkingId": "1155",
      "parkingName": "东兴支路路边停车场",
      "coordSystem": "gcj02",
      "location": {
        "lat": 29.710166081,
        "lng": 120.2573191614
      },
      "entrances": [
        {
          "entryId": "2262",
          "entryName": "路侧停车位",
          "location": {
            "lat": 29.710166081,
            "lng": 120.2573191614
          }
        }
      ],
      "totalSpotsKnown": true,
      "cameras": [
        {
          "cameraId": 4826,
          "cameraRole": "spots",
          "entryId": "2262",
          "cameraStatus": 1,
          "snapshotTime": 1776161413817,
          "snapshotUrl": "https://aidata-oss-cloud-prod.zhidaozhixing.com/oss-cloud/open/files/tmp/12c0979f91cc4f679317356850d1a363.jpg",
          "totalSpots": 8,
          "availableSpots": 8,
          "matchScore": 1
        }
      ]
    },
    {
      "parkingId": "1176",
      "parkingName": "不夜城停车场",
      "coordSystem": "gcj02",
      "location": {
        "lat": 29.7148759698,
        "lng": 120.2648512503
      },
      "entrances": [
        {
          "entryId": "2296",
          "entryName": "北侧停车位",
          "location": {
            "lat": 29.7148759698,
            "lng": 120.2648512503
          }
        },
        {
          "entryId": "2374",
          "entryName": "东侧停车位",
          "location": {
            "lat": 29.7148759698,
            "lng": 120.2648512503
          }
        }
      ],
      "totalSpotsKnown": true,
      "cameras": [
        {
          "cameraId": 9056,
          "cameraRole": "spots",
          "entryId": "2296",
          "cameraStatus": 1,
          "snapshotTime": 1776161614116,
          "snapshotUrl": "https://aidata-oss-cloud-prod.zhidaozhixing.com/oss-cloud/open/files/tmp/c49664bd2a134c4cb146030d9e4df167.jpg",
          "totalSpots": 8,
          "availableSpots": 1,
          "matchScore": 1
        },
        {
          "cameraId": 3461,
          "cameraRole": "spots",
          "entryId": "2374",
          "cameraStatus": 1,
          "snapshotTime": 1776161618200,
          "snapshotUrl": "https://aidata-oss-cloud-prod.zhidaozhixing.com/oss-cloud/open/files/tmp/a0a1f90d4f8f4a6487a796704983f46a.jpg",
          "totalSpots": 3,
          "availableSpots": 0,
          "matchScore": 1
        }
      ]
    },
    {
      "parkingId": "1195",
      "parkingName": "城市广场停车场",
      "coordSystem": "gcj02",
      "location": {
        "lat": 29.7086855732,
        "lng": 120.2415321243
      },
      "entrances": [
        {
          "entryId": "2351",
          "entryName": "停车位",
          "location": {
            "lat": 29.7086855732,
            "lng": 120.2415321243
          }
        }
      ],
      "totalSpotsKnown": true,
      "cameras": [
        {
          "cameraId": 3512,
          "cameraRole": "spots",
          "entryId": "2351",
          "cameraStatus": 1,
          "snapshotTime": 1776161146215,
          "snapshotUrl": "https://aidata-oss-cloud-prod.zhidaozhixing.com/oss-cloud/open/files/tmp/ea309675b6c247a58bf3ac64351e6913.jpg",
          "totalSpots": 3,
          "availableSpots": 3,
          "matchScore": 1
        },
        {
          "cameraId": 4256,
          "cameraRole": "spots",
          "entryId": "2351",
          "cameraStatus": 1,
          "snapshotTime": 1776161299947,
          "snapshotUrl": "https://aidata-oss-cloud-prod.zhidaozhixing.com/oss-cloud/open/files/tmp/11e1b564e3824499b0523b822542a583.jpg",
          "totalSpots": 18,
          "availableSpots": 15,
          "matchScore": 1
        }
      ]
    },
    {
      "parkingId": "1200",
      "parkingName": "云众人才市场停车场",
      "coordSystem": "gcj02",
      "location": {
        "lat": 29.6999416114,
        "lng": 120.1560424291
      },
      "entrances": [
        {
          "entryId": "2373",
          "entryName": "停车区",
          "location": {
            "lat": 29.6999416114,
            "lng": 120.1560424291
          }
        }
      ],
      "totalSpotsKnown": true,
      "cameras": [
        {
          "cameraId": 3747,
          "cameraRole": "spots",
          "entryId": "2373",
          "cameraStatus": 1,
          "snapshotTime": 1776161372057,
          "snapshotUrl": "https://aidata-oss-cloud-prod.zhidaozhixing.com/oss-cloud/open/files/tmp/15dc0a11c8ad4aa28c01790784afc976.jpg",
          "totalSpots": 51,
          "availableSpots": 41,
          "matchScore": 1
        }
      ]
    }
  ]
}